{"type": "FeatureCollection", "features": [{"type": "Feature", "geometry": {"type": "Point", "coordinates": [139.6790041117, 35.6750370099]}, "properties": {"name": "セブン‐イレブン／渋谷西原１丁目店"}}, {"type": "Feature", "geometry": {"type": "Point", "coordinates": [139.7127745853, 35.6472795687]}, "properties": {"name": "ファミリーマート／恵比寿駅東店"}}, {"type": "Feature", "geometry": {"type": "Point", "coordinates": [139.7113187595, 35.6461216671]}, "properties": {"name": "ファミリーマート／恵比寿駅東口店"}}, {"type": "Feature", "geometry": {"type": "Point", "coordinates": [139.7074684445, 35.6599061255]}, "properties": {"name": "ファミリーマート／渋谷二丁目中央店"}}, {"type": "Feature", "geometry": {"type": "Point", "coordinates": [139.7012038586, 35.6839284466]}, "properties": {"name": "セブン‐イレブン／渋谷代々木１丁目店"}}, {"type": "Feature", "geometry": {"type": "Point", "coordinates": [139.6786727879, 35.6826671879]}, "properties": {"name": "ローソンストア１００渋谷本町六丁目店"}}, {"type": "Feature", "geometry": {"type": "Point", "coordinates": [139.6891049549, 35.6819424477]}, "properties": {"name": "ファミリーマート／初台交差点前店"}}, {"type": "Feature", "geometry": {"type": "Point", "coordinates": [139.683928465, 35.6802005436]}, "properties": {"name": "セブン‐イレブン／渋谷本町１丁目店"}}, {"type": "Feature", "geometry": {"type": "Point", "coordinates": [139.6999858778, 35.6639915578]}, "properties": {"name": "ファミリーマート／渋谷神南北谷公園前店"}}, {"type": "Feature", "geometry": {"type": "Point", "coordinates": [139.693318476, 35.6847422218]}, "properties": {"name": "ファミリーマート／代々木三丁目店"}}, {"type": "Feature", "geometry": {"type": "Point", "coordinates": [139.708674971, 35.6462966022]}, "properties": {"name": "ファミリーマート／恵比寿銀座通り店"}}, {"type": "Feature", "geometry": {"type": "Point", "coordinates": [139.709713913, 35.645682686]}, "properties": {"name": "ファミリーマート／恵比寿南一丁目店"}}, {"type": "Feature", "geometry": {"type": "Point", "coordinates": [139.6929026342, 35.6820585016]}, "properties": {"name": "ローソン／代々木西参道店"}}, {"type": "Feature", "geometry": {"type": "Point", "coordinates": [139.6940785955, 35.659060982]}, "properties": {"name": "ローソン／円山町店"}}, {"type": "Feature", "geometry": {"type": "Point", "coordinates": [139.7131534802, 35.6705940816]}, "properties": {"name": "ファミリーマート／神宮前三丁目店"}}, {"type": "Feature", "geometry": {"type": "Point", "coordinates": [139.7182402264, 35.6452158849]}, "properties": {"name": "セブン‐イレブン／渋谷恵比寿３丁目店"}}, {"type": "Feature", "geometry": {"type": "Point", "coordinates": [139.7089846096, 35.6753045049]}, "properties": {"name": "ファミリーマート／千駄ヶ谷二丁目店"}}, {"type": "Feature", "geometry": {"type": "Point", "coordinates": [139.700914127, 35.6569063318]}, "properties": {"name": "ファミリーマート／渋谷桜丘町店"}}, {"type": "Feature", "geometry": {"type": "Point", "coordinates": [139.7115408834, 35.6430300017]}, "properties": {"name": "ファミリーマート／薬ヒグチ恵比寿アメリカ橋店"}}, {"type": "Feature", "geometry": {"type": "Point", "coordinates": [139.7158822618, 35.6486984712]}, "properties": {"name": "ローソン／広尾南店"}}, {"type": "Feature", "geometry": {"type": "Point", "coordinates": [139.6988530259, 35.6628196633]}, "properties": {"name": "ファミリーマート／渋谷公園通り店"}}, {"type": "Feature", "geometry": {"type": "Point", "coordinates": [139.7032882441, 35.6717987804]}, "properties": {"name": "ファミリーマート／原宿竹下口店"}}, {"type": "Feature", "geometry": {"type": "Point", "coordinates": [139.7065881347, 35.6682212207]}, "properties": {"name": "ローソン／神宮前四丁目店"}}, {"type": "Feature", "geometry": {"type": "Point", "coordinates": [139.6776757363, 35.6855858583]}, "properties": {"name": "ファミリーマート／幡ヶ谷本町店"}}, {"type": "Feature", "geometry": {"type": "Point", "coordinates": [139.696053494, 35.6577031617]}, "properties": {"name": "セブン‐イレブン／渋谷道玄坂２丁目店"}}, {"type": "Feature", "geometry": {"type": "Point", "coordinates": [139.6940533389, 35.6646773808]}, "properties": {"name": "ファミリーマート／渋谷ＮＨＫ前店"}}, {"type": "Feature", "geometry": {"type": "Point", "coordinates": [139.6843913016, 35.6829142614]}, "properties": {"name": "セブン‐イレブン／渋谷オペラ通り店"}}, {"type": "Feature", "geometry": {"type": "Point", "coordinates": [139.7005612823, 35.6541706183]}, "properties": {"name": "ローソン／渋谷鴬谷町店"}}, {"type": "Feature", "geometry": {"type": "Point", "coordinates": [139.7068627615, 35.6758324114]}, "properties": {"name": "ミニストップ千駄ヶ谷３丁目店"}}, {"type": "Feature", "geometry": {"type": "Point", "coordinates": [139.7126714651, 35.6500762678]}, "properties": {"name": "ローソン／恵比寿プライムスクエア店"}}, {"type": "Feature", "geometry": {"type": "Point", "coordinates": [139.7105785271, 35.6742206487]}, "properties": {"name": "別所商店"}}, {"type": "Feature", "geometry": {"type": "Point", "coordinates": [139.696766444, 35.6575031955]}, "properties": {"name": "ファミリーマート／渋谷マークシティ店"}}, {"type": "Feature", "geometry": {"type": "Point", "coordinates": [139.7013831668, 35.655195523]}, "properties": {"name": "ローソン／桜丘町南店"}}, {"type": "Feature", "geometry": {"type": "Point", "coordinates": [139.7033715364, 35.665299477]}, "properties": {"name": "ファミリーマート／神宮前店"}}, {"type": "Feature", "geometry": {"type": "Point", "coordinates": [139.7073187205, 35.6541817351]}, "properties": {"name": "阿木酒店"}}, {"type": "Feature", "geometry": {"type": "Point", "coordinates": [139.706179088, 35.6699740261]}, "properties": {"name": "ミニストップ神宮前１丁目店"}}, {"type": "Feature", "geometry": {"type": "Point", "coordinates": [139.705074873, 35.6549176172]}, "properties": {"name": "ファミリーマート／渋谷ガーデンフロント店"}}, {"type": "Feature", "geometry": {"type": "Point", "coordinates": [139.7091407232, 35.6508371247]}, "properties": {"name": "セブン‐イレブン／渋谷東３丁目店"}}, {"type": "Feature", "geometry": {"type": "Point", "coordinates": [139.6792064259, 35.6678487823]}, "properties": {"name": "ファミリーマート／上原三丁目店"}}, {"type": "Feature", "geometry": {"type": "Point", "coordinates": [139.6927618626, 35.6556343255]}, "properties": {"name": "セブン‐イレブン／渋谷神泉町店"}}, {"type": "Feature", "geometry": {"type": "Point", "coordinates": [139.704498795, 35.6793679919]}, "properties": {"name": "ローソン／北参道駅前店"}}, {"type": "Feature", "geometry": {"type": "Point", "coordinates": [139.7024644522, 35.6470484133]}, "properties": {"name": "セブン‐イレブン／代官山鎗ヶ崎"}}, {"type": "Feature", "geometry": {"type": "Point", "coordinates": [139.7098179954, 35.6654215766]}, "properties": {"name": "ファミリーマート／神宮前五丁目南店"}}, {"type": "Feature", "geometry": {"type": "Point", "coordinates": [139.7034493294, 35.6696550125]}, "properties": {"name": "ファミリーマート／原宿駅東店"}}, {"type": "Feature", "geometry": {"type": "Point", "coordinates": [139.6989640526, 35.6620387488]}, "properties": {"name": "ファミリーマート／パンゲアストア渋谷店"}}, {"type": "Feature", "geometry": {"type": "Point", "coordinates": [139.6955333283, 35.6622386675]}, "properties": {"name": "セブン‐イレブン／渋谷宇田川町北店"}}, {"type": "Feature", "geometry": {"type": "Point", "coordinates": [139.7064817265, 35.67727925]}, "properties": {"name": "セブン‐イレブン／北参道駅前店"}}, {"type": "Feature", "geometry": {"type": "Point", "coordinates": [139.6969393724, 35.6587450657]}, "properties": {"name": "セブン‐イレブン／渋谷道玄坂店"}}, {"type": "Feature", "geometry": {"type": "Point", "coordinates": [139.6981503922, 35.6561313665]}, "properties": {"name": "ファミリーマート／スバル桜丘２４６店"}}, {"type": "Feature", "geometry": {"type": "Point", "coordinates": [139.705144271, 35.6461485564]}, "properties": {"name": "セブン‐イレブン／渋谷恵比寿南３丁目店"}}, {"type": "Feature", "geometry": {"type": "Point", "coordinates": [139.7106142828, 35.6794620887]}, "properties": {"name": "セブン‐イレブン／渋谷千駄ヶ谷１丁目店"}}, {"type": "Feature", "geometry": {"type": "Point", "coordinates": [139.7165292844, 35.6470406598]}, "properties": {"name": "ファミリーマート／恵比寿一丁目東店"}}, {"type": "Feature", "geometry": {"type": "Point", "coordinates": [139.6811261665, 35.6700205835]}, "properties": {"name": "セブン‐イレブン／代々木上原駅前店"}}, {"type": "Feature", "geometry": {"type": "Point", "coordinates": [139.6989971463, 35.6599449733]}, "properties": {"name": "ファミリーマート／渋谷１０９前店"}}, {"type": "Feature", "geometry": {"type": "Point", "coordinates": [139.6660462675, 35.6733069686]}, "properties": {"name": "サンスマイル"}}, {"type": "Feature", "geometry": {"type": "Point", "coordinates": [139.6815255256, 35.6832191787]}, "properties": {"name": "セブン‐イレブン／渋谷本町２丁目店"}}, {"type": "Feature", "geometry": {"type": "Point", "coordinates": [139.69506463, 35.6565312698]}, "properties": {"name": "ローソン／渋谷道玄坂上店"}}, {"type": "Feature", "geometry": {"type": "Point", "coordinates": [139.7029163844, 35.6477043511]}, "properties": {"name": "ファミリーマート／代官山駅前店"}}, {"type": "Feature", "geometry": {"type": "Point", "coordinates": [139.7027106891, 35.6631746928]}, "properties": {"name": "ファミリーマート／渋谷キャットストリート店"}}, {"type": "Feature", "geometry": {"type": "Point", "coordinates": [139.6797648961, 35.678347669]}, "properties": {"name": "ローソン／渋谷本町一丁目店"}}, {"type": "Feature", "geometry": {"type": "Point", "coordinates": [139.7041939664, 35.6544786488]}, "properties": {"name": "セブン‐イレブン／渋谷桜丘東店"}}, {"type": "Feature", "geometry": {"type": "Point", "coordinates": [139.7063827248, 35.655778548]}, "properties": {"name": "セブン‐イレブン／渋谷３丁目明治通り店"}}, {"type": "Feature", "geometry": {"type": "Point", "coordinates": [139.7000891414, 35.6580811918]}, "properties": {"name": "セブン‐イレブン／渋谷中央街店"}}, {"type": "Feature", "geometry": {"type": "Point", "coordinates": [139.7104342964, 35.6794900826]}, "properties": {"name": "ローソン／千駄ヶ谷一丁目店"}}, {"type": "Feature", "geometry": {"type": "Point", "coordinates": [139.6627825346, 35.6733929024]}, "properties": {"name": "ファミリーマート／渋谷笹塚二丁目西店"}}, {"type": "Feature", "geometry": {"type": "Point", "coordinates": [139.6992756218, 35.6491151366]}, "properties": {"name": "ファミリーマート／代官山店"}}, {"type": "Feature", "geometry": {"type": "Point", "coordinates": [139.6951755836, 35.6573391853]}, "properties": {"name": "ファミリーマート／渋谷円山町店"}}, {"type": "Feature", "geometry": {"type": "Point", "coordinates": [139.692421841, 35.6784338809]}, "properties": {"name": "セブン‐イレブン／代々木参宮橋店"}}, {"type": "Feature", "geometry": {"type": "Point", "coordinates": [139.6981929229, 35.6879639624]}, "properties": {"name": "セブン‐イレブン／新宿駅西店"}}, {"type": "Feature", "geometry": {"type": "Point", "coordinates": [139.70407771, 35.6602560288]}, "properties": {"name": "ＪＰローソン渋谷郵便局店"}}, {"type": "Feature", "geometry": {"type": "Point", "coordinates": [139.6663210338, 35.6778864835]}, "properties": {"name": "ファミリーマート／笹塚三丁目北店"}}, {"type": "Feature", "geometry": {"type": "Point", "coordinates": [139.6878800646, 35.6817694448]}, "properties": {"name": "ローソン／初台一丁目店"}}, {"type": "Feature", "geometry": {"type": "Point", "coordinates": [139.7049531991, 35.6480543492]}, "properties": {"name": "セブン‐イレブン／代官山駅東店"}}, {"type": "Feature", "geometry": {"type": "Point", "coordinates": [139.7017928886, 35.6822146402]}, "properties": {"name": "セブン‐イレブン渋谷代々木１丁目南店"}}, {"type": "Feature", "geometry": {"type": "Point", "coordinates": [139.6797664394, 35.6882636084]}, "properties": {"name": "セブン‐イレブン／渋谷本町４丁目店"}}, {"type": "Feature", "geometry": {"type": "Point", "coordinates": [139.711006853, 35.6663694959]}, "properties": {"name": "セブン‐イレブン／原宿表参道店"}}, {"type": "Feature", "geometry": {"type": "Point", "coordinates": [139.7208378664, 35.6483485952]}, "properties": {"name": "セブン‐イレブン／渋谷広尾５丁目店"}}, {"type": "Feature", "geometry": {"type": "Point", "coordinates": [139.701317627, 35.6887529326]}, "properties": {"name": "デイリーヤマザキ／バスタ新宿店"}}, {"type": "Feature", "geometry": {"type": "Point", "coordinates": [139.7081933251, 35.6611920006]}, "properties": {"name": "セブン‐イレブン／渋谷２丁目中央店"}}, {"type": "Feature", "geometry": {"type": "Point", "coordinates": [139.6971040725, 35.6866780809]}, "properties": {"name": "ファミリーマート／代々木二丁目北店"}}, {"type": "Feature", "geometry": {"type": "Point", "coordinates": [139.7027359413, 35.6576532838]}, "properties": {"name": "セブン‐イレブン渋谷駅東口店"}}, {"type": "Feature", "geometry": {"type": "Point", "coordinates": [139.7061037258, 35.6779761688]}, "properties": {"name": "ファミリーマート／北参道駅前店"}}, {"type": "Feature", "geometry": {"type": "Point", "coordinates": [139.701954968, 35.6584811816]}, "properties": {"name": "ＬＡＷＳＯＮプラストークス（ｔｏｋｓ）／渋谷スクランブルスクエア店"}}, {"type": "Feature", "geometry": {"type": "Point", "coordinates": [139.7141923398, 35.6717709738]}, "properties": {"name": "デイリーヤマザキ／神宮前店"}}, {"type": "Feature", "geometry": {"type": "Point", "coordinates": [139.7163963571, 35.6457018007]}, "properties": {"name": "セブン‐イレブン／渋谷恵比寿１丁目東店"}}, {"type": "Feature", "geometry": {"type": "Point", "coordinates": [139.6943165666, 35.659258965]}, "properties": {"name": "コミュニティ・ストア渋谷まつもと店"}}, {"type": "Feature", "geometry": {"type": "Point", "coordinates": [139.6934943954, 35.6644583945]}, "properties": {"name": "ファミリーマート／渋谷神山町店"}}, {"type": "Feature", "geometry": {"type": "Point", "coordinates": [139.6849662137, 35.6837861782]}, "properties": {"name": "ファミリーマート／渋谷本町店"}}, {"type": "Feature", "geometry": {"type": "Point", "coordinates": [139.7150494105, 35.6469716414]}, "properties": {"name": "ファミリーマート／恵比寿一丁目店"}}, {"type": "Feature", "geometry": {"type": "Point", "coordinates": [139.6968113572, 35.6593060035]}, "properties": {"name": "ローソン／道玄坂二丁目店"}}, {"type": "Feature", "geometry": {"type": "Point", "coordinates": [139.7180021518, 35.6472656615]}, "properties": {"name": "ローソンストア１００渋谷恵比寿二丁目店"}}, {"type": "Feature", "geometry": {"type": "Point", "coordinates": [139.7033282198, 35.6505370553]}, "properties": {"name": "セブン‐イレブン／渋谷代官山店"}}, {"type": "Feature", "geometry": {"type": "Point", "coordinates": [139.7009638219, 35.6634416337]}, "properties": {"name": "ファミリーマート／渋谷消防署南店"}}, {"type": "Feature", "geometry": {"type": "Point", "coordinates": [139.6893225294, 35.6690738279]}, "properties": {"name": "ローソン／富ヶ谷一丁目店"}}, {"type": "Feature", "geometry": {"type": "Point", "coordinates": [139.698514231, 35.6589750686]}, "properties": {"name": "ファミリーマート／道玄坂二丁目店"}}, {"type": "Feature", "geometry": {"type": "Point", "coordinates": [139.6985790592, 35.6843063603]}, "properties": {"name": "ファミリーマート／南新宿駅前店"}}, {"type": "Feature", "geometry": {"type": "Point", "coordinates": [139.7105967356, 35.6479434596]}, "properties": {"name": "セブン‐イレブン／恵比寿駅東口店"}}, {"type": "Feature", "geometry": {"type": "Point", "coordinates": [139.6928698806, 35.6550473902]}, "properties": {"name": "ナチュラルローソン渋谷神泉町店"}}, {"type": "Feature", "geometry": {"type": "Point", "coordinates": [139.7148023805, 35.6480685197]}, "properties": {"name": "ミニストップ広尾１丁目店"}}, {"type": "Feature", "geometry": {"type": "Point", "coordinates": [139.6978320701, 35.6854172285]}, "properties": {"name": "セブン‐イレブン／渋谷代々木２丁目店"}}, {"type": "Feature", "geometry": {"type": "Point", "coordinates": [139.7092546388, 35.6524649526]}, "properties": {"name": "ファミリーマート／渋谷東二丁目店"}}, {"type": "Feature", "geometry": {"type": "Point", "coordinates": [139.708210503, 35.6572974175]}, "properties": {"name": "ローソン／渋谷東１丁目店"}}, {"type": "Feature", "geometry": {"type": "Point", "coordinates": [139.6952944605, 35.6597999242]}, "properties": {"name": "有限会社小島商店"}}, {"type": "Feature", "geometry": {"type": "Point", "coordinates": [139.7136101352, 35.6555456991]}, "properties": {"name": "セブン‐イレブン／渋谷東４丁目店"}}, {"type": "Feature", "geometry": {"type": "Point", "coordinates": [139.710076258, 35.680969918]}, "properties": {"name": "ミニストップ千駄ヶ谷駅前店"}}, {"type": "Feature", "geometry": {"type": "Point", "coordinates": [139.6871365937, 35.6716185176]}, "properties": {"name": "ローソン／元代々木町店"}}, {"type": "Feature", "geometry": {"type": "Point", "coordinates": [139.7014987794, 35.6851173246]}, "properties": {"name": "ファミリーマート／代々木一丁目店"}}, {"type": "Feature", "geometry": {"type": "Point", "coordinates": [139.6700239243, 35.6735870081]}, "properties": {"name": "ファミリーマート／渋谷笹塚一丁目店"}}, {"type": "Feature", "geometry": {"type": "Point", "coordinates": [139.6983972099, 35.6596449949]}, "properties": {"name": "ファミリーマート／道玄坂センタービル店"}}, {"type": "Feature", "geometry": {"type": "Point", "coordinates": [139.7142855311, 35.6457297609]}, "properties": {"name": "ファミリーマート／恵比寿四丁目店"}}, {"type": "Feature", "geometry": {"type": "Point", "coordinates": [139.7082036132, 35.676634349]}, "properties": {"name": "セブン‐イレブン／渋谷千駄ヶ谷３丁目店"}}, {"type": "Feature", "geometry": {"type": "Point", "coordinates": [139.7052466816, 35.6587642088]}, "properties": {"name": "ファミリーマート／渋谷クロスタワー店"}}, {"type": "Feature", "geometry": {"type": "Point", "coordinates": [139.7033691703, 35.651536949]}, "properties": {"name": "ナチュラルローソン渋谷代官山店"}}, {"type": "Feature", "geometry": {"type": "Point", "coordinates": [139.7105785271, 35.6742206487]}, "properties": {"name": "セブン‐イレブン／渋谷神宮前２丁目西店"}}, {"type": "Feature", "geometry": {"type": "Point", "coordinates": [139.721687949, 35.6450219659]}, "properties": {"name": "ファミリーマート／恵比寿二丁目店"}}, {"type": "Feature", "geometry": {"type": "Point", "coordinates": [139.6994988241, 35.6877530077]}, "properties": {"name": "ファミリーマート／新宿駅南店"}}, {"type": "Feature", "geometry": {"type": "Point", "coordinates": [139.6750342408, 35.6793944744]}, "properties": {"name": "ファミリーマート／幡ヶ谷三丁目店"}}, {"type": "Feature", "geometry": {"type": "Point", "coordinates": [139.6667961839, 35.6737699321]}, "properties": {"name": "セブン‐イレブン／渋谷笹塚駅前店"}}, {"type": "Feature", "geometry": {"type": "Point", "coordinates": [139.7018958135, 35.6836614872]}, "properties": {"name": "ローソン／クオール代々木駅前店"}}, {"type": "Feature", "geometry": {"type": "Point", "coordinates": [139.7010718535, 35.6625607298]}, "properties": {"name": "セブン‐イレブン／渋谷神南１丁目店"}}, {"type": "Feature", "geometry": {"type": "Point", "coordinates": [139.7083494282, 35.6586722728]}, "properties": {"name": "セブン‐イレブン／渋谷区渋谷２の南店"}}, {"type": "Feature", "geometry": {"type": "Point", "coordinates": [139.7076300807, 35.6457986372]}, "properties": {"name": "ローソン／恵比寿店"}}, {"type": "Feature", "geometry": {"type": "Point", "coordinates": [139.6920894437, 35.665944211]}, "properties": {"name": "セブン‐イレブン／渋谷代々木公園店"}}, {"type": "Feature", "geometry": {"type": "Point", "coordinates": [139.7113936388, 35.6486074025]}, "properties": {"name": "ローソン／広尾一丁目店"}}, {"type": "Feature", "geometry": {"type": "Point", "coordinates": [139.6997519691, 35.6841473978]}, "properties": {"name": "ファミリーマート／山野学苑店"}}, {"type": "Feature", "geometry": {"type": "Point", "coordinates": [139.7018128981, 35.6819726664]}, "properties": {"name": "ファミリーマート／代々木駅西店"}}, {"type": "Feature", "geometry": {"type": "Point", "coordinates": [139.6854362784, 35.6815334274]}, "properties": {"name": "ファミリーマート／初台駅北口店"}}, {"type": "Feature", "geometry": {"type": "Point", "coordinates": [139.6996141723, 35.6582671636]}, "properties": {"name": "セブン‐イレブン／渋谷駅西店"}}, {"type": "Feature", "geometry": {"type": "Point", "coordinates": [139.7052101154, 35.6711268858]}, "properties": {"name": "セブン‐イレブン／原宿竹下通り店"}}, {"type": "Feature", "geometry": {"type": "Point", "coordinates": [139.6964863008, 35.6611168041]}, "properties": {"name": "ファミリーマート／渋谷東急本店前店"}}, {"type": "Feature", "geometry": {"type": "Point", "coordinates": [139.698511241, 35.6587640912]}, "properties": {"name": "ミニストップ道玄坂２丁目店"}}, {"type": "Feature", "geometry": {"type": "Point", "coordinates": [139.6718177462, 35.6742199717]}, "properties": {"name": "セブン‐イレブン／渋谷笹塚東店"}}, {"type": "Feature", "geometry": {"type": "Point", "coordinates": [139.7098408824, 35.6461186416]}, "properties": {"name": "ローソン／恵比寿南一丁目店"}}, {"type": "Feature", "geometry": {"type": "Point", "coordinates": [139.6994412705, 35.6564453554]}, "properties": {"name": "セブン‐イレブン／渋谷セルリアンタワー店"}}, {"type": "Feature", "geometry": {"type": "Point", "coordinates": [139.7118126996, 35.668249309]}, "properties": {"name": "セブン‐イレブン／神宮前店"}}, {"type": "Feature", "geometry": {"type": "Point", "coordinates": [139.7042153703, 35.6673852687]}, "properties": {"name": "ローソン／神宮前六丁目店"}}, {"type": "Feature", "geometry": {"type": "Point", "coordinates": [139.6934887286, 35.6789508442]}, "properties": {"name": "ファミリーマート／参宮橋駅前店"}}, {"type": "Feature", "geometry": {"type": "Point", "coordinates": [139.705668783, 35.6558005332]}, "properties": {"name": "ローソン渋谷三丁目明治通り店"}}, {"type": "Feature", "geometry": {"type": "Point", "coordinates": [139.693611719, 35.6572201707]}, "properties": {"name": "デイリーヤマザキ／神泉店"}}, {"type": "Feature", "geometry": {"type": "Point", "coordinates": [139.702024863, 35.6606359523]}, "properties": {"name": "ファミリーマート／渋谷一丁目店"}}, {"type": "Feature", "geometry": {"type": "Point", "coordinates": [139.6963631123, 35.6871500175]}, "properties": {"name": "セブン‐イレブン／西新宿甲州街道店"}}, {"type": "Feature", "geometry": {"type": "Point", "coordinates": [139.7147994188, 35.6472436079]}, "properties": {"name": "セブン‐イレブン／渋谷恵比寿１丁目店"}}, {"type": "Feature", "geometry": {"type": "Point", "coordinates": [139.7032076005, 35.6642025915]}, "properties": {"name": "ファミリーマート／神宮前五丁目店"}}, {"type": "Feature", "geometry": {"type": "Point", "coordinates": [139.663885423, 35.673828875]}, "properties": {"name": "ファミリーマート／笹塚二丁目店"}}, {"type": "Feature", "geometry": {"type": "Point", "coordinates": [139.6979002505, 35.6596589848]}, "properties": {"name": "有限会社シンコー商事"}}, {"type": "Feature", "geometry": {"type": "Point", "coordinates": [139.698611007, 35.6636665685]}, "properties": {"name": "株式会社オリエンタルウィンド"}}, {"type": "Feature", "geometry": {"type": "Point", "coordinates": [139.7082829062, 35.6484103693]}, "properties": {"name": "ファミリーマート／恵比寿西口店"}}, {"type": "Feature", "geometry": {"type": "Point", "coordinates": [139.7000779415, 35.6624417252]}, "properties": {"name": "ファミリーマート／渋谷フィンガーアベニュー店"}}, {"type": "Feature", "geometry": {"type": "Point", "coordinates": [139.6991032713, 35.657039286]}, "properties": {"name": "セブン‐イレブン／渋谷道玄坂１丁目店"}}, {"type": "Feature", "geometry": {"type": "Point", "coordinates": [139.6949397157, 35.6548974424]}, "properties": {"name": "セブン‐イレブン／渋谷南平台町店"}}, {"type": "Feature", "geometry": {"type": "Point", "coordinates": [139.708663789, 35.6502681772]}, "properties": {"name": "セブン‐イレブン／恵比寿駅北店"}}, {"type": "Feature", "geometry": {"type": "Point", "coordinates": [139.7081989279, 35.6698080791]}, "properties": {"name": "ファミリーマート／原宿神宮前店"}}, {"type": "Feature", "geometry": {"type": "Point", "coordinates": [139.7013348398, 35.6841004305]}, "properties": {"name": "セブン‐イレブン／代々木駅北口店"}}, {"type": "Feature", "geometry": {"type": "Point", "coordinates": [139.6983459602, 35.6868780812]}, "properties": {"name": "ファミリーマート／新宿マインズタワー店"}}, {"type": "Feature", "geometry": {"type": "Point", "coordinates": [139.7010999132, 35.6612138743]}, "properties": {"name": "ファミリーマート／渋谷駅北店"}}, {"type": "Feature", "geometry": {"type": "Point", "coordinates": [139.7048706237, 35.6824176722]}, "properties": {"name": "ファミリーマート／千駄ヶ谷鳩森店"}}, {"type": "Feature", "geometry": {"type": "Point", "coordinates": [139.6801262701, 35.6695736138]}, "properties": {"name": "ファミリーマート／代々木上原駅前店"}}, {"type": "Feature", "geometry": {"type": "Point", "coordinates": [139.6771622152, 35.6761118627]}, "properties": {"name": "ファミリーマート／幡ヶ谷駅南店"}}, {"type": "Feature", "geometry": {"type": "Point", "coordinates": [139.7038613843, 35.6460015497]}, "properties": {"name": "ファミリーマート／恵比寿南三丁目店"}}, {"type": "Feature", "geometry": {"type": "Point", "coordinates": [139.7029328417, 35.6594610938]}, "properties": {"name": "ファミリーマート／宮益坂下店"}}, {"type": "Feature", "geometry": {"type": "Point", "coordinates": [139.7030517314, 35.6833585398]}, "properties": {"name": "ファミリーマート／代々木東口店"}}, {"type": "Feature", "geometry": {"type": "Point", "coordinates": [139.7033147938, 35.6815287401]}, "properties": {"name": "セブン‐イレブン／代々木千駄ヶ谷４丁目店"}}, {"type": "Feature", "geometry": {"type": "Point", "coordinates": [139.6868643064, 35.6783507927]}, "properties": {"name": "ローソン／渋谷初台１丁目店"}}, {"type": "Feature", "geometry": {"type": "Point", "coordinates": [139.7089431916, 35.6627388482]}, "properties": {"name": "ファミリーマート／青山オーバルビル店"}}, {"type": "Feature", "geometry": {"type": "Point", "coordinates": [139.6673051863, 35.6728010447]}, "properties": {"name": "ローソン／笹塚駅前店"}}, {"type": "Feature", "geometry": {"type": "Point", "coordinates": [139.7138935468, 35.6460967148]}, "properties": {"name": "セブン‐イレブン／渋谷恵比寿１丁目南店"}}, {"type": "Feature", "geometry": {"type": "Point", "coordinates": [139.7045186455, 35.6608609718]}, "properties": {"name": "セブン‐イレブン／渋谷１丁目店"}}, {"type": "Feature", "geometry": {"type": "Point", "coordinates": [139.7064745145, 35.660178079]}, "properties": {"name": "セブン‐イレブン／渋谷金王坂上店"}}, {"type": "Feature", "geometry": {"type": "Point", "coordinates": [139.6995332071, 35.6576562275]}, "properties": {"name": "ファミリーマート／渋谷道玄坂プラザ通り店"}}, {"type": "Feature", "geometry": {"type": "Point", "coordinates": [139.6823977467, 35.676842876]}, "properties": {"name": "ＪＰローソン代々木郵便局店"}}, {"type": "Feature", "geometry": {"type": "Point", "coordinates": [139.7030780643, 35.6543646415]}, "properties": {"name": "ミニストップ渋谷桜丘店"}}, {"type": "Feature", "geometry": {"type": "Point", "coordinates": [139.6667320678, 35.6764086488]}, "properties": {"name": "スリーエフ笹塚３丁目店"}}, {"type": "Feature", "geometry": {"type": "Point", "coordinates": [139.6767621795, 35.6776086956]}, "properties": {"name": "ファミリーマート／幡ヶ谷駅北口店"}}, {"type": "Feature", "geometry": {"type": "Point", "coordinates": [139.7060578278, 35.6541257191]}, "properties": {"name": "セブン‐イレブン／渋谷並木橋店"}}, {"type": "Feature", "geometry": {"type": "Point", "coordinates": [139.7166243537, 35.6453658406]}, "properties": {"name": "ローソン／恵比寿三丁目店"}}, {"type": "Feature", "geometry": {"type": "Point", "coordinates": [139.701954968, 35.6584811816]}, "properties": {"name": "ＬＡＷＳＯＮプラストークス（ｔｏｋｓ）／渋谷スクランブルスクエア９階店"}}, {"type": "Feature", "geometry": {"type": "Point", "coordinates": [139.7056937549, 35.656367473]}, "properties": {"name": "ファミリーマート／渋谷明治通り店"}}, {"type": "Feature", "geometry": {"type": "Point", "coordinates": [139.7128375794, 35.6690102455]}, "properties": {"name": "ローソン／神宮前三丁目マイセン通り店"}}, {"type": "Feature", "geometry": {"type": "Point", "coordinates": [139.7100439602, 35.6440628651]}, "properties": {"name": "ファミリーマート／恵比寿駅南店"}}, {"type": "Feature", "geometry": {"type": "Point", "coordinates": [139.6666961572, 35.6745318489]}, "properties": {"name": "セブン‐イレブン／渋谷笹塚２丁目店"}}, {"type": "Feature", "geometry": {"type": "Point", "coordinates": [139.6994578971, 35.6645244916]}, "properties": {"name": "デイリーヤマザキ渋谷区神南店"}}, {"type": "Feature", "geometry": {"type": "Point", "coordinates": [139.6742091503, 35.6828470907]}, "properties": {"name": "セブン‐イレブン／渋谷本町店"}}, {"type": "Feature", "geometry": {"type": "Point", "coordinates": [139.6681909869, 35.6755337678]}, "properties": {"name": "セブン‐イレブン／笹塚２丁目１０号通り店"}}, {"type": "Feature", "geometry": {"type": "Point", "coordinates": [139.7123283848, 35.6741546863]}, "properties": {"name": "ミニストップ神宮前２丁目店"}}, {"type": "Feature", "geometry": {"type": "Point", "coordinates": [139.7053962827, 35.6671583136]}, "properties": {"name": "ファミリーマート／表参道中央店"}}, {"type": "Feature", "geometry": {"type": "Point", "coordinates": [139.6830611926, 35.6876807283]}, "properties": {"name": "ローソンストア１００渋谷本町三丁目店"}}, {"type": "Feature", "geometry": {"type": "Point", "coordinates": [139.6953645149, 35.6584920653]}, "properties": {"name": "ローソン／渋谷ランブリングストリート店"}}, {"type": "Feature", "geometry": {"type": "Point", "coordinates": [139.7081878538, 35.6714379046]}, "properties": {"name": "ファミリーマート／渋谷原宿通り店"}}, {"type": "Feature", "geometry": {"type": "Point", "coordinates": [139.720126875, 35.6494434657]}, "properties": {"name": "ナチュラルローソン広尾５丁目店"}}, {"type": "Feature", "geometry": {"type": "Point", "coordinates": [139.7084776023, 35.6546597043]}, "properties": {"name": "セブン‐イレブン／渋谷東１丁目店"}}, {"type": "Feature", "geometry": {"type": "Point", "coordinates": [139.6947476784, 35.6560533154]}, "properties": {"name": "ファミリーマート／道玄坂上店"}}, {"type": "Feature", "geometry": {"type": "Point", "coordinates": [139.7041515885, 35.6844784393]}, "properties": {"name": "ファミリーマート／千駄ヶ谷五丁目店"}}, {"type": "Feature", "geometry": {"type": "Point", "coordinates": [139.7007941828, 35.6559094364]}, "properties": {"name": "セブン‐イレブン／渋谷桜丘店"}}, {"type": "Feature", "geometry": {"type": "Point", "coordinates": [139.7087151456, 35.6641496933]}, "properties": {"name": "セブン‐イレブン／渋谷神宮前５丁目店"}}, {"type": "Feature", "geometry": {"type": "Point", "coordinates": [139.6967912228, 35.6622606871]}, "properties": {"name": "ローソン／渋谷区井の頭通店"}}, {"type": "Feature", "geometry": {"type": "Point", "coordinates": [139.6769450512, 35.6800644362]}, "properties": {"name": "ミニストップ渋谷本町６丁目店"}}, {"type": "Feature", "geometry": {"type": "Point", "coordinates": [139.682590356, 35.6632633318]}, "properties": {"name": "セブン‐イレブン／渋谷上原２丁目店"}}, {"type": "Feature", "geometry": {"type": "Point", "coordinates": [139.7042858532, 35.6567704053]}, "properties": {"name": "ファミリーマート／渋谷三丁目店"}}, {"type": "Feature", "geometry": {"type": "Point", "coordinates": [139.7062775048, 35.6607450149]}, "properties": {"name": "ファミリーマート／宮益坂上店"}}, {"type": "Feature", "geometry": {"type": "Point", "coordinates": [139.6680460557, 35.6743008972]}, "properties": {"name": "セブン‐イレブン／渋谷笹塚駅北店"}}, {"type": "Feature", "geometry": {"type": "Point", "coordinates": [139.7048717528, 35.6578952952]}, "properties": {"name": "セブン‐イレブン／渋谷３丁目六本木通り店"}}, {"type": "Feature", "geometry": {"type": "Point", "coordinates": [139.6807973522, 35.6882966229]}, "properties": {"name": "ファミリーマート／渋谷本町三丁目店"}}, {"type": "Feature", "geometry": {"type": "Point", "coordinates": [139.7001380114, 35.6825335772]}, "properties": {"name": "ナチュラルローソン代々木駅西店"}}, {"type": "Feature", "geometry": {"type": "Point", "coordinates": [139.7118998627, 35.642833029]}, "properties": {"name": "セブン‐イレブン／恵比寿アメリカ橋店"}}, {"type": "Feature", "geometry": {"type": "Point", "coordinates": [139.6850660766, 35.6865828808]}, "properties": {"name": "セブン‐イレブン／渋谷本町３丁目店"}}, {"type": "Feature", "geometry": {"type": "Point", "coordinates": [139.7073410304, 35.6474124596]}, "properties": {"name": "ローソン／恵比寿西一丁目店"}}, {"type": "Feature", "geometry": {"type": "Point", "coordinates": [139.6870119099, 35.6649772257]}, "properties": {"name": "セブン‐イレブン／渋谷富ヶ谷２丁目店"}}, {"type": "Feature", "geometry": {"type": "Point", "coordinates": [139.7076738636, 35.6721518192]}, "properties": {"name": "ローソン／神宮前１丁目店"}}, {"type": "Feature", "geometry": {"type": "Point", "coordinates": [139.6699378447, 35.6754698052]}, "properties": {"name": "ローソン／渋谷笹塚ニ丁目店"}}, {"type": "Feature", "geometry": {"type": "Point", "coordinates": [139.7075578658, 35.6505961228]}, "properties": {"name": "ローソン／恵比寿西二丁目店"}}, {"type": "Feature", "geometry": {"type": "Point", "coordinates": [139.7208600735, 35.6438110809]}, "properties": {"name": "ローソン／天現寺店"}}, {"type": "Feature", "geometry": {"type": "Point", "coordinates": [139.7051027314, 35.6579422942]}, "properties": {"name": "ファミリーマート／渋谷警察東店"}}, {"type": "Feature", "geometry": {"type": "Point", "coordinates": [139.7043248831, 35.656050483]}, "properties": {"name": "ローソン渋谷三丁目店"}}, {"type": "Feature", "geometry": {"type": "Point", "coordinates": [139.69386671, 35.6569562034]}, "properties": {"name": "ローソン／神泉駅前店"}}, {"type": "Feature", "geometry": {"type": "Point", "coordinates": [139.697775201, 35.6609608433]}, "properties": {"name": "ファミリーマート／渋谷宇田川交番前店"}}, {"type": "Feature", "geometry": {"type": "Point", "coordinates": [139.696153473, 35.657978134]}, "properties": {"name": "ファミリーマート／道玄坂中央店"}}, {"type": "Feature", "geometry": {"type": "Point", "coordinates": [139.6983691312, 35.6614058061]}, "properties": {"name": "デイリーヤマザキ渋谷宇田川町店"}}, {"type": "Feature", "geometry": {"type": "Point", "coordinates": [139.6958771866, 35.6864140877]}, "properties": {"name": "ミニストップ代々木二丁目店"}}, {"type": "Feature", "geometry": {"type": "Point", "coordinates": [139.7090037521, 35.6721738401]}, "properties": {"name": "ファミリーマート／神宮前二丁目店"}}, {"type": "Feature", "geometry": {"type": "Point", "coordinates": [139.701548877, 35.6829085617]}, "properties": {"name": "ファミリーマート／代々木駅前店"}}, {"type": "Feature", "geometry": {"type": "Point", "coordinates": [139.6813057374, 35.6790146246]}, "properties": {"name": "ファミリーマート／渋谷本町一丁目店"}}, {"type": "Feature", "geometry": {"type": "Point", "coordinates": [139.722051664, 35.6505543805]}, "properties": {"name": "セブン‐イレブン／広尾駅前店"}}]}